City_ID,City,Lat,Lng,Max Temp,Humidity,Cloudiness,Wind Speed,Country,Date
0,Lagoa,39.05,-27.9833,15.04,88,4,8.19,PT,1675552773
1,Hobart,-42.8794,147.3294,20.59,53,20,2.06,AU,1675552773
2,Cayenne,4.9333,-52.3333,24.02,94,75,1.03,GF,1675552773
3,Muros,42.7762,-9.0603,8.94,84,1,4.34,ES,1675552773
4,Rikitea,-23.1203,-134.9692,26.2,74,2,5.8,PF,1675552774
5,Kitakata,37.65,139.8667,-0.63,91,97,1.6,JP,1675552774
6,Karratha,-20.7377,116.8463,31.73,45,58,1.5,AU,1675552774
7,Butaritari,3.0707,172.7902,27.36,80,65,8.45,KI,1675552775
8,Torbay,47.6666,-52.7314,-13.06,84,75,10.29,CA,1675552775
9,Beringovskiy,63.05,179.3167,-27.35,84,52,7.23,RU,1675552775
10,Tautira,-17.7333,-149.15,26.7,77,75,6.59,PF,1675552555
11,Três Lagoas,-20.7511,-51.6783,23.88,88,98,1.04,BR,1675552776
12,Koumra,8.9126,17.5539,27.76,15,27,1.77,TD,1675552776
13,Busselton,-33.65,115.3333,24.07,40,77,2.6,AU,1675552777
14,Hambantota,6.1241,81.1185,24.1,86,51,4.92,LK,1675552777
15,Port Alfred,-33.5906,26.891,23.99,87,100,0.89,ZA,1675552777
16,Gisborne,-38.6533,178.0042,24.06,68,3,3.66,NZ,1675552778
17,Puerto Ayora,-0.7393,-90.3518,27.53,89,58,3.13,EC,1675552537
18,Avarua,-21.2078,-159.775,29.03,79,40,7.2,CK,1675552778
19,Ushuaia,-54.8,-68.3,12.81,58,75,6.17,AR,1675552778
20,Manta,-0.95,-80.7333,27.88,74,75,3.6,EC,1675552779
21,Merauke,-8.4667,140.3333,25.44,88,100,2.79,ID,1675552655
22,Vaini,-21.2,-175.2,30.09,74,75,7.2,TO,1675552779
23,Comodoro Rivadavia,-45.8667,-67.5,25.92,38,0,2.57,AR,1675552779
24,Taoudenni,22.6783,-3.9836,15.47,37,100,5.8,ML,1675552780
25,Qaanaaq,77.484,-69.3632,-19.67,60,70,2.05,GL,1675552780
26,Leningradskiy,69.3833,178.4167,-31.96,99,100,2.02,RU,1675552780
27,Ancud,-41.8697,-73.8203,19.08,74,45,1.31,CL,1675552781
28,Cherskiy,68.75,161.3,-38.28,100,97,1.68,RU,1675552781
29,Huercal Overa,37.389,-1.9454,10.57,33,0,1.21,ES,1675552781
30,Sistranda,63.7256,8.834,1.98,97,100,7.05,NO,1675552782
31,Raahe,64.6833,24.4833,-5.95,91,100,6.4,FI,1675552782
32,Hithadhoo,-0.6,73.0833,27.52,71,83,6.97,MV,1675552782
33,Punta Arenas,-53.15,-70.9167,12.06,94,100,6.69,CL,1675552783
34,Mataura,-46.1927,168.8643,21.42,75,100,1.12,NZ,1675552783
35,Shirokiy,49.758,129.523,-24.78,99,94,2.16,RU,1675552783
36,Ponta do Sol,32.6667,-17.1,17.35,48,22,4.23,PT,1675552783
37,Mount Isa,-20.7333,139.5,27.87,26,84,5.14,AU,1675552784
38,Dingle,10.9995,122.6711,23.73,94,90,3.38,PH,1675552784
39,Noyabrsk,63.1994,75.4507,-13.89,95,100,5.28,RU,1675552784
40,Mar del Plata,-38.0023,-57.5575,19.97,71,20,2.68,AR,1675552574
41,Kaitangata,-46.2817,169.8464,23.38,62,100,1.5,NZ,1675552785
42,Mastic Beach,40.7668,-72.8521,-6.24,49,100,1.54,US,1675552690
43,Fortuna,40.5982,-124.1573,17.42,59,75,6.17,US,1675552544
44,Thinadhoo,0.5333,72.9333,26.61,72,34,5.16,MV,1675552785
45,Kruisfontein,-34.0033,24.7314,21.34,62,64,2.14,ZA,1675552667
46,Bredasdorp,-34.5322,20.0403,20.02,89,0,3.44,ZA,1675552786
47,Khatanga,71.9667,102.5,-39.13,100,50,2.26,RU,1675552551
48,Nemuro,43.3236,145.575,-5.65,72,30,3.78,JP,1675552490
49,Faya,18.3851,42.4509,11.29,61,82,0.35,SA,1675552786
50,Virginia Beach,36.8529,-75.978,0.02,64,20,3.6,US,1675552786
51,Souillac,-20.5167,57.5167,25.25,86,70,4.17,MU,1675552526
52,George Town,5.4112,100.3354,25.96,90,20,3.6,MY,1675552689
53,Chokurdakh,70.6333,147.9167,-30.52,97,80,3.8,RU,1675552787
54,Cleethorpes,53.5605,-0.0323,8.14,87,75,6.17,GB,1675552787
55,Zhangaözen,43.3,52.8,-1.99,84,37,3.1,KZ,1675552788
56,Missoula,47.0166,-113.8009,2.22,98,92,1.65,US,1675552788
57,Hong Kong,22.2855,114.1577,18.03,86,100,3.58,HK,1675552593
58,Isangel,-19.55,169.2667,28.62,82,66,7.0,VU,1675552533
59,Bluff,-46.6,168.3333,16.92,90,100,6.25,NZ,1675552494
60,Castro,-24.7911,-50.0119,17.45,94,84,2.03,BR,1675552788
61,Boa Vista,2.8197,-60.6733,26.99,69,40,2.06,BR,1675552639
62,Jamestown,42.097,-79.2353,-3.23,34,0,6.17,US,1675552713
63,Saint-Leu,-21.15,55.2833,25.46,79,94,0.75,RE,1675552789
64,Bethel,41.3712,-73.414,-6.86,39,100,2.06,US,1675552789
65,Arraial do Cabo,-22.9661,-42.0278,25.55,87,25,5.86,BR,1675552789
66,College,64.8569,-147.8028,-11.17,79,75,2.57,US,1675552599
67,Albany,42.6001,-73.9662,-10.59,47,70,2.11,US,1675552547
68,Tiksi,71.6872,128.8694,-28.81,100,100,1.22,RU,1675552790
69,Grão Mogol,-16.5594,-42.8897,20.13,82,31,0.42,BR,1675552790
70,Chui,-33.6971,-53.4616,18.69,93,22,5.66,UY,1675552791
71,Ust-Nera,64.5667,143.2,-33.1,99,100,0.54,RU,1675552791
72,Diamantino,-14.4086,-56.4461,22.62,94,100,1.95,BR,1675552791
73,Garissa,-0.4536,39.6401,25.05,64,73,3.36,KE,1675552792
74,New Norfolk,-42.7826,147.0587,20.4,52,10,1.34,AU,1675552792
75,Bubaque,11.2833,-15.8333,25.01,65,14,5.91,GW,1675552793
76,Kloulklubed,7.0419,134.2556,27.28,78,98,8.38,PW,1675552793
77,Cape Town,-33.9258,18.4232,21.23,90,75,3.09,ZA,1675552674
78,Upernavik,72.7868,-56.1549,-21.42,97,100,1.39,GL,1675552547
79,Fes,34.0372,-4.9998,4.14,75,0,3.09,MA,1675552758
80,Tasiilaq,65.6145,-37.6368,-3.91,88,100,11.47,GL,1675552793
81,Opunake,-39.4556,173.8583,23.25,75,71,7.22,NZ,1675552794
82,Faanui,-16.4833,-151.75,27.54,73,56,7.8,PF,1675552794
83,Santa Maria,-29.6842,-53.8069,25.14,33,29,3.31,BR,1675552794
84,Nikolskoye,59.7035,30.7861,-4.0,91,99,2.94,RU,1675552795
85,Severo-Kuril'sk,50.6789,156.125,-2.6,72,100,2.62,RU,1675552795
86,Zaysan,47.4667,84.8667,-8.13,82,33,2.48,KZ,1675552795
87,Ahipara,-35.1667,173.1667,22.72,69,100,4.74,NZ,1675552796
88,Hilo,19.7297,-155.09,26.27,79,100,4.12,US,1675552796
89,Mana,5.6592,-53.7767,24.71,88,100,6.4,GF,1675552796
90,Filingué,14.3521,3.3168,25.03,16,4,1.41,NE,1675552797
91,Kitgum,3.2783,32.8867,22.61,40,85,1.45,UG,1675552797
92,Mossamedes,-15.1961,12.1522,21.46,76,71,3.25,AO,1675552797
93,San Patricio,28.017,-97.5169,20.92,60,35,4.06,US,1675552798
94,Zhigansk,66.7697,123.3711,-41.98,96,46,4.79,RU,1675552798
95,Yellowknife,62.456,-114.3525,-25.25,70,75,0.0,CA,1675552798
96,Norman Wells,65.282,-126.8329,-25.98,70,75,2.57,CA,1675552799
97,Kapaa,22.0752,-159.319,24.18,87,100,7.72,US,1675552799
98,Kinlochleven,56.7115,-4.9661,1.27,92,11,1.96,GB,1675552799
99,Tuatapere,-46.1333,167.6833,18.22,99,100,0.51,NZ,1675552799
100,Zhoucheng,35.9122,116.3117,-0.39,76,0,3.04,CN,1675552800
101,Saint Paul Harbor,57.79,-152.4072,1.73,75,40,1.54,US,1675552800
102,Geraldton,-28.7667,114.6,23.23,88,75,2.57,AU,1675552763
103,Thompson,55.7435,-97.8558,-18.91,71,75,1.54,CA,1675552801
104,Dolores,-36.3132,-57.6792,20.83,46,0,7.34,AR,1675552801
105,Mareeba,-17.0,145.4333,25.24,97,100,1.31,AU,1675552802
106,Kilindoni,-7.9139,39.6668,27.53,78,100,5.36,TZ,1675552803
107,Longyearbyen,78.2186,15.6401,-9.09,62,0,10.8,SJ,1675552634
108,São Filipe,14.8961,-24.4956,22.15,63,23,6.34,CV,1675552805
109,Maïné Soroa,13.2114,12.0241,23.33,15,60,4.09,NE,1675552806
110,Vila Velha,-20.3297,-40.2925,27.19,85,0,7.2,BR,1675552808
111,Boende,-0.2167,20.8667,25.01,73,100,1.36,CD,1675552811
112,Hermanus,-34.4187,19.2345,21.56,92,24,3.05,ZA,1675552811
113,Atuona,-9.8,-139.0333,25.93,74,30,7.73,PF,1675552813
114,Port-Cartier,50.0334,-66.8654,-19.58,71,60,7.34,CA,1675552567
115,Alofi,-19.0595,-169.9187,27.94,78,100,4.12,NU,1675552816
116,East London,-33.0153,27.9116,23.5,82,100,4.87,ZA,1675552816
117,Redcar,54.6166,-1.06,5.2,62,62,7.27,GB,1675552817
118,Grindavik,63.8424,-22.4338,2.26,93,100,9.77,IS,1675552819
119,Omiš,43.4447,16.6886,3.96,51,0,11.19,HR,1675552820
120,Otuzco,-7.9,-78.5833,10.94,89,100,2.2,PE,1675552821
121,Oranjestad,12.524,-70.027,26.97,83,20,9.26,AW,1675552823
122,Nagato,34.3833,131.2,4.6,61,31,2.19,JP,1675552824
123,Pivijay,10.4617,-74.6162,27.5,62,8,5.35,CO,1675552825
124,Nanortalik,60.1432,-45.2371,-4.68,84,99,7.49,GL,1675552826
125,Ribeira Grande,38.5167,-28.7,16.54,91,26,4.47,PT,1675552828
126,Kaoma,-14.7833,24.8,18.37,98,100,2.56,ZM,1675552832
127,Tuktoyaktuk,69.4541,-133.0374,-42.0,66,20,1.03,CA,1675552833
128,Dikson,73.5069,80.5464,-19.39,97,100,1.34,RU,1675552834
129,Udachny,66.4167,112.4,-41.42,72,78,0.07,RU,1675552834
130,Baruun-Urt,46.6806,113.2792,-20.32,90,29,0.7,MN,1675552834
131,Koutsouras,35.0339,25.9469,11.73,69,45,3.89,GR,1675552835
132,Kulhudhuffushi,6.6221,73.07,26.67,78,100,2.11,MV,1675552835
133,Magistral'nyy,56.1725,107.4458,-14.51,97,100,1.32,RU,1675552835
134,Sarkand,45.41,79.9186,-4.89,78,87,3.28,KZ,1675552836
135,Kifrī,34.6959,44.9661,9.66,52,100,4.04,IQ,1675552836
136,Danilovka,50.3557,44.1168,-6.62,96,97,2.85,RU,1675552837
137,Klaksvík,62.2266,-6.589,4.51,74,50,13.96,FO,1675552837
138,Brae,60.3964,-1.353,5.53,65,51,9.8,GB,1675552838
139,Kattivākkam,13.2167,80.3167,24.05,72,5,0.74,IN,1675552717
140,Singleton,-32.5667,151.1833,24.05,31,0,1.88,AU,1675552839
141,Jaisalmer,26.9147,70.9181,19.51,21,0,2.63,IN,1675552840
142,Xining,36.6167,101.7667,-2.97,36,13,0.81,CN,1675552840
143,Mayumba,-3.432,10.6554,24.75,89,90,1.6,GA,1675552841
144,Clyde River,70.4692,-68.5914,-25.87,58,100,8.23,CA,1675552798
145,Vila Franca do Campo,37.7167,-25.4333,14.23,84,2,3.25,PT,1675552841
146,Saskylakh,71.9167,114.0833,-34.93,98,90,1.43,RU,1675552599
147,Casper,42.8666,-106.3131,2.62,59,0,8.75,US,1675552842
148,Sweetwater,25.7634,-80.3731,23.01,79,75,8.75,US,1675552842
149,Necochea,-38.5473,-58.7368,17.73,65,0,4.73,AR,1675552842
150,Balkhash,46.844,74.9804,-8.45,96,94,2.32,KZ,1675552843
151,Pokhara,28.2333,83.9833,12.22,46,5,2.18,NP,1675552843
152,Den Helder,52.9599,4.7593,7.79,99,100,2.68,NL,1675552843
153,Lompoc,34.6391,-120.4579,21.08,77,100,5.81,US,1675552562
154,Turukhansk,65.8167,87.9833,-13.55,96,97,2.98,RU,1675552844
155,Nuuk,64.1835,-51.7216,-20.82,79,100,5.36,GL,1675552758
156,Araouane,18.9048,-3.5265,16.03,17,99,5.2,ML,1675552844
157,Agüimes,27.9054,-15.4461,13.35,72,20,3.6,ES,1675552844
158,Nyurba,63.2842,118.3319,-47.54,100,100,0.82,RU,1675552845
159,Yeniseysk,58.4497,92.1703,-17.14,99,99,0.47,RU,1675552845
160,Birjand,32.8663,59.2211,6.26,75,40,5.14,IR,1675552845
161,Iqaluit,63.7506,-68.5145,-36.84,65,40,7.2,CA,1675552846
162,Barrow,71.2906,-156.7887,-30.99,76,40,4.12,US,1675552597
163,Danielskuil,-28.1887,23.5395,22.81,43,95,2.98,ZA,1675552733
164,Port Elizabeth,-33.918,25.5701,29.16,39,0,6.17,ZA,1675552846
165,Les Cayes,18.2,-73.75,24.52,75,13,3.46,HT,1675552846
166,Waingapu,-9.6567,120.2641,24.56,89,100,3.68,ID,1675552847
167,Wewak,-3.5534,143.6268,26.72,83,100,1.65,PG,1675552847
168,Kutum,14.2,24.6667,15.5,19,99,3.29,SD,1675552848
169,Labuhan,-6.8844,112.2051,25.14,87,100,2.78,ID,1675552617
170,Liverpool,53.4106,-2.9779,6.97,82,0,3.6,GB,1675552783
171,San Cristobal,7.7669,-72.225,23.1,58,38,0.82,VE,1675552848
172,Coyhaique,-45.5752,-72.0662,25.97,38,20,3.09,CL,1675552849
173,Tchamba,9.0333,1.4167,28.1,16,78,1.67,TG,1675552849
174,Nueva Granada,9.8017,-74.393,31.36,36,39,1.59,CO,1675552849
175,Tacuarembó,-31.7333,-55.9833,22.46,34,0,4.15,UY,1675552850
176,Alegrete,-29.7831,-55.7919,25.9,26,4,4.87,BR,1675552808
177,Taltal,-25.4,-70.4833,22.02,77,53,1.37,CL,1675552556
178,Kimitsu,35.3253,139.8911,6.2,56,4,4.39,JP,1675552804
179,Osakarovka,50.565,72.5692,-15.28,96,79,3.2,KZ,1675552850
180,Kirakira,-10.4544,161.9205,30.0,71,48,1.65,SB,1675552730
181,Potsdam,52.3989,13.0657,0.06,81,16,1.45,DE,1675552851
182,Acapulco de Juárez,16.8634,-99.8901,29.9,58,0,2.57,MX,1675552851
183,Napier City,-39.4833,176.9167,22.33,76,3,3.1,NZ,1675552851
184,Piteå,65.3172,21.4794,-18.95,84,99,2.21,SE,1675552851
185,Auki,-8.7676,160.7034,27.71,83,100,2.77,SB,1675552618
186,Narsaq,60.9167,-46.05,-3.88,88,100,3.62,GL,1675552852
187,Saint George,37.1041,-113.5841,16.91,29,0,1.54,US,1675552767
188,Majene,-3.5403,118.9707,25.5,77,100,2.22,ID,1675552852
189,Ishinomaki,38.4167,141.3,0.0,68,8,2.96,JP,1675552853
190,Maryville,35.7565,-83.9705,8.11,57,100,0.45,US,1675552853
191,Vestmanna,62.1564,-7.1664,3.51,81,75,10.8,FO,1675552598
192,Northam,51.0333,-4.2167,10.22,92,100,2.63,GB,1675552854
193,Egvekinot,66.3167,-179.1667,-32.64,88,15,6.1,RU,1675552854
194,Salinópolis,-0.6136,-47.3561,25.82,87,99,5.52,BR,1675552854
195,Tambopata,-12.7333,-69.1833,24.94,78,75,1.03,PE,1675552854
196,Los Llanos de Aridane,28.6585,-17.9182,14.86,68,75,6.69,ES,1675552855
197,Katsuura,35.1333,140.3,7.16,66,11,6.45,JP,1675552855
198,Sørland,67.667,12.6934,3.92,95,100,17.59,NO,1675552855
199,Codrington,-38.2667,141.9667,15.63,75,100,2.79,AU,1675552856
200,Sotik Post,-0.7813,35.3416,11.38,64,75,1.49,KE,1675552856
201,Bulgan,48.8125,103.5347,-18.89,89,84,1.29,MN,1675552856
202,Chibuto,-24.6867,33.5306,22.65,89,11,3.19,MZ,1675552857
203,Guerrero Negro,27.9769,-114.0611,19.86,41,0,5.26,MX,1675552857
204,Bengkulu,-3.8004,102.2655,23.34,89,100,2.21,ID,1675552560
205,Sepuka,-4.75,34.5333,15.34,86,58,2.14,TZ,1675552857
206,Sirte,31.2089,16.5887,14.07,69,35,2.16,LY,1675552858
207,Gushikawa,26.3544,127.8686,17.57,94,100,4.12,JP,1675552858
208,Lazurne,46.084,32.5295,1.08,78,100,8.93,UA,1675552858
209,Kiryat Gat,31.61,34.7642,12.44,100,73,3.41,IL,1675552859
210,Ostrovnoy,68.0531,39.5131,-10.1,84,100,5.56,RU,1675552782
211,Talnakh,69.4865,88.3972,-11.55,95,100,3.13,RU,1675552738
212,Kaliua,-5.0606,31.7936,18.03,90,76,1.15,TZ,1675552859
213,Carnarvon,-24.8667,113.6333,26.05,70,1,3.19,AU,1675552795
214,Raudeberg,61.9875,5.1352,2.75,20,100,7.21,NO,1675552859
215,Plouzané,48.3833,-4.6167,7.1,81,100,1.54,FR,1675552860
216,Port Lincoln,-34.7333,135.8667,18.17,66,61,2.04,AU,1675552855
217,Botou,38.0667,116.5667,0.05,65,0,3.72,CN,1675552860
218,Antalaha,-14.9003,50.2788,23.84,88,41,2.16,MG,1675552861
219,Prijepolje,43.3719,19.6406,-4.82,94,100,4.34,RS,1675552861
220,Carutapera,-1.195,-46.02,24.71,93,100,3.49,BR,1675552608
221,Saint Lawrence,36.0553,14.204,11.67,71,12,8.11,MT,1675552862
222,Mokhsogollokh,61.4681,128.9203,-38.16,100,98,1.6,RU,1675552863
223,Qarayeri,40.7886,46.3066,2.49,51,75,3.09,AZ,1675552865
224,Montesarchio,41.0654,14.6402,6.49,47,39,6.61,IT,1675552868
225,Lebu,-37.6167,-73.65,16.34,89,59,1.37,CL,1675552870
226,Tiznit Province,29.5833,-9.5,10.27,42,6,1.19,MA,1675552871
227,Waipawa,-41.4122,175.5153,23.93,62,28,3.17,NZ,1675552875
228,Arlit,18.7369,7.3853,22.02,10,15,4.85,NE,1675552876
229,Hobyo,5.3505,48.5268,23.61,74,58,6.79,SO,1675552877
230,Pevek,69.7008,170.3133,-37.31,100,94,0.65,RU,1675552879
231,Praia da Vitória,38.7333,-27.0667,15.98,94,20,6.22,PT,1675552880
232,Port Blair,11.6667,92.75,26.02,89,40,2.57,IN,1675552881
233,Sibolga,1.7427,98.7792,24.08,86,100,1.18,ID,1675552882
234,Nakonde,-9.3421,32.745,15.34,96,100,1.32,ZM,1675552882
235,Panguipulli,-39.6333,-72.3333,31.57,29,2,2.96,CL,1675552883
236,Touros,-5.1989,-35.4608,26.51,80,82,6.09,BR,1675552652
237,Lembeni,-3.7833,37.6167,19.51,89,65,2.04,TZ,1675552884
238,Katherine,-14.4667,132.2667,26.18,73,33,2.57,AU,1675552884
239,Saravena,6.9538,-71.8752,27.11,47,69,1.5,CO,1675552885
240,Ilulissat,69.2167,-51.1,-18.99,71,73,3.09,GL,1675552887
241,Port-Gentil,-0.7193,8.7815,25.98,94,20,1.54,GA,1675552888
242,Nanhai,30.1282,111.7784,5.35,68,47,1.41,CN,1675552889
243,Kidal,18.4411,1.4078,20.43,10,94,5.57,ML,1675552891
244,Vitim,59.4511,112.5578,-16.39,97,100,2.12,RU,1675552892
245,Saint-Philippe,-21.3585,55.7679,24.77,86,99,4.62,RE,1675552893
246,Edgewater,28.9889,-80.9023,19.54,63,75,7.72,US,1675552893
247,Vardø,70.3705,31.1107,-8.01,79,20,5.66,NO,1675552893
248,Marzuq,14.4,46.4667,17.14,65,40,0.76,YE,1675552893
249,High Prairie,55.4334,-116.4858,0.39,95,95,1.5,CA,1675552894
250,Sydney,-33.8679,151.2073,26.45,42,0,3.09,AU,1675552713
251,Esperance,-33.8667,121.9,19.38,61,0,6.87,AU,1675552894
252,Zhireken,52.8249,117.3076,-29.24,100,65,0.8,RU,1675552895
253,Tynda,55.1667,124.7167,-31.03,100,93,0.76,RU,1675552895
254,Lüderitz,-26.6481,15.1594,17.89,83,42,7.06,NA,1675552885
255,Mehamn,71.0357,27.8492,-3.03,74,78,4.63,NO,1675552896
256,Oistins,13.0667,-59.5333,26.05,78,75,8.75,BB,1675552878
257,Walvis Bay,-22.9575,14.5053,17.83,80,100,4.64,NA,1675552896
258,Cabo San Lucas,22.8909,-109.9124,26.45,48,0,3.6,MX,1675552896
259,Kalmunai,7.4167,81.8167,24.52,87,91,3.72,LK,1675552897
260,Granja,-3.1203,-40.8261,25.5,84,67,3.42,BR,1675552897
261,Qasigiannguit,68.8193,-51.1922,-18.86,99,77,2.66,GL,1675552897
262,Puerto del Rosario,28.5004,-13.8627,14.86,67,0,3.09,ES,1675552898
263,Oodweyne,9.4092,45.064,17.15,26,70,5.25,SO,1675552898
264,Birin,26.8865,88.0718,8.0,69,4,1.65,NP,1675552898
265,Shōbara,34.85,133.0167,1.47,85,29,0.48,JP,1675552899
266,Quelimane,-17.8786,36.8883,23.24,89,27,1.14,MZ,1675552899
267,Monastyryshche,48.9909,29.8047,-5.09,74,100,5.36,UA,1675552899
268,Namatanai,-3.6667,152.4333,27.21,78,100,1.42,PG,1675552894
269,Cidreira,-30.1811,-50.2056,23.36,75,57,4.75,BR,1675552900
270,Parrita,9.5201,-84.3225,28.25,65,9,1.87,CR,1675552900
271,Abu Dhabi,24.4667,54.3667,18.31,81,0,0.0,AE,1675552840
272,Osa,57.2829,55.4567,-16.44,96,100,0.41,RU,1675552901
273,Jiamusi,46.8333,130.35,-15.37,97,100,1.58,CN,1675552901
274,Nkongsamba,4.9547,9.9404,20.36,94,42,0.25,CM,1675552901
275,Tulun,54.5611,100.5792,-17.12,99,100,0.62,RU,1675552902
276,Henties Bay,-22.116,14.2845,17.89,87,97,3.35,NA,1675552607
277,San Vicente,-26.6167,-54.1333,23.61,49,98,1.95,AR,1675552902
278,Lahat,-3.8,103.5333,21.17,92,100,1.0,ID,1675552902
279,Bajil,15.0584,43.2851,23.57,79,35,2.01,YE,1675552903
280,Saint-Pierre,-21.3393,55.4781,24.82,88,0,1.54,RE,1675552903
281,Prince Rupert,54.3161,-130.3201,7.83,91,100,13.38,CA,1675552806
282,Galle,6.0367,80.217,24.5,88,43,0.56,LK,1675552903
283,Bohmte,52.3667,8.3167,3.98,87,46,2.37,DE,1675552904
284,Álamos,27.0167,-108.9333,29.41,14,0,2.65,MX,1675552904
285,Niterói,-22.8833,-43.1036,30.81,72,75,5.66,BR,1675552904
286,Saldanha,-33.0117,17.9442,19.03,96,93,6.45,ZA,1675552905
287,Sur,22.5667,59.5289,21.08,66,1,2.42,OM,1675552905
288,Pisco,-13.7,-76.2167,23.03,94,0,4.12,PE,1675552905
289,Kavaratti,10.5669,72.642,27.25,68,52,1.97,IN,1675552906
290,Lavrentiya,65.5833,-171.0,-24.01,94,91,2.98,RU,1675552896
291,Mahébourg,-20.4081,57.7,26.16,83,75,1.54,MU,1675552906
292,Piaçabuçu,-10.4056,-36.4344,26.28,81,41,4.2,BR,1675552906
293,Tignère,7.3667,12.65,21.72,21,100,0.88,CM,1675552907
294,Coromandel,-18.4733,-47.2003,20.64,87,83,0.59,BR,1675552907
295,Letlhakane,-21.4167,25.5833,23.21,67,99,5.73,BW,1675552907
296,Prince Albert,53.2001,-105.7677,-7.03,86,100,2.06,CA,1675552908
297,Inyonga,-6.7167,32.0667,17.97,90,100,1.28,TZ,1675552908
298,Kouango,4.9934,19.9619,26.03,19,37,1.08,CF,1675552908
299,Guaraniaçu,-25.1008,-52.8781,18.76,76,88,0.61,BR,1675552909
300,Palmerston,-12.486,130.9833,27.72,81,75,4.12,AU,1675552909
301,La Plata,-34.9215,-57.9545,25.02,57,0,5.96,AR,1675552909
302,Mayo,38.8876,-76.5119,-0.48,48,0,4.12,US,1675552910
303,Airai,-8.9266,125.4092,16.8,88,98,1.06,TL,1675552910
304,Constitución,-35.3333,-72.4167,17.81,84,26,1.76,CL,1675552910
305,Oranjemund,-28.55,16.4333,17.74,93,26,4.53,NA,1675552911
306,Jatai,-17.8814,-51.7144,21.46,92,84,2.06,BR,1675552911
307,Moranbah,-22.0016,148.0466,27.71,70,90,5.64,AU,1675552911
308,Lékoni,-1.5843,14.2591,26.42,62,98,3.38,GA,1675552912
309,Bullhead City,35.1478,-114.5683,23.3,20,40,3.09,US,1675552895
310,Tessalit,20.1986,1.0114,15.74,16,62,4.65,ML,1675552912
311,Antibes,43.5624,7.1278,11.74,72,0,2.06,FR,1675552912
312,Gouré,13.9835,10.2704,21.94,16,59,3.46,NE,1675552913
313,Bambous Virieux,-20.3428,57.7575,26.14,83,75,1.54,MU,1675552913
314,Grand Gaube,-20.0064,57.6608,26.22,82,97,0.89,MU,1675552913
315,Bilibino,68.0546,166.4372,-37.03,98,15,1.95,RU,1675552914
316,Russell,32.3502,-85.1999,13.6,35,0,2.57,US,1675552914
317,Buraidah,26.326,43.975,12.25,35,0,5.05,SA,1675552724
318,Yadrin,55.9405,46.2062,-14.94,100,96,1.1,RU,1675552914
319,Mount Hagen,-5.8581,144.2274,18.42,88,40,2.06,PG,1675552915
320,Chastyye,57.2888,54.9728,-15.33,97,100,0.53,RU,1675552915
321,Puerto Madero,14.7208,-92.4215,30.11,54,20,3.6,MX,1675552915
322,Ingham,42.6,-84.3833,-0.03,65,0,2.57,US,1675552916
323,North Bend,43.4065,-124.2243,13.29,85,100,4.63,US,1675552883
324,Krutinka,56.0055,71.5113,-19.21,100,100,1.29,RU,1675552916
325,Ciudad Bolivar,8.1222,-63.5497,29.92,45,99,6.25,VE,1675552916
326,Broken Hill,-31.95,141.4333,19.08,46,0,4.75,AU,1675552917
327,City of San Pedro,14.35,121.0167,24.59,80,75,0.51,PH,1675552917
328,Saint Anthony,45.0205,-93.218,-1.5,70,75,3.6,US,1675552656
329,Tual,-5.6667,132.75,27.35,81,100,6.47,ID,1675552917
330,Ca Mau,9.1769,105.15,23.78,83,93,3.8,VN,1675552918
331,Laas,46.6166,10.7002,1.49,75,34,4.0,IT,1675552918
332,Beloha,-25.1667,45.05,22.68,83,99,5.85,MG,1675552918
333,Fort Nelson,58.8053,-122.7002,-14.47,79,100,0.45,CA,1675552919
334,Tombouctou,20.0,-3.0,15.88,20,100,4.71,ML,1675552919
335,Coquimbo,-29.9533,-71.3436,20.85,68,0,4.63,CL,1675552919
336,Rio Claro,-22.4114,-47.5614,21.6,93,100,2.19,BR,1675552920
337,Pakhtakoron,40.1571,68.7466,5.07,94,100,2.88,TJ,1675552920
338,Roebourne,-20.7833,117.1333,31.53,51,95,1.8,AU,1675552914
339,Cody,44.5263,-109.0565,7.12,37,0,11.18,US,1675552629
340,Puerto Escondido,15.85,-97.0667,27.46,74,40,2.57,MX,1675552665
341,Coahuayana Viejo,18.7333,-103.6833,28.93,43,0,2.59,MX,1675552646
342,Meulaboh,4.1363,96.1285,23.76,87,98,1.62,ID,1675552920
343,San Ramon,37.7799,-121.978,14.4,93,100,4.63,US,1675552921
344,Lorengau,-2.0226,147.2712,28.86,69,100,2.53,PG,1675552921
345,Chiang Klang,19.2938,100.8617,19.43,97,40,0.35,TH,1675552921
346,Casma,-41.0082,-73.1244,27.6,46,44,3.59,CL,1675552922
347,Puerto Suárez,-18.95,-57.8,28.55,51,59,0.81,BO,1675552660
348,Provideniya,64.3833,-173.3,-19.22,89,100,4.97,RU,1675552922
349,Sayyan,15.1718,44.3244,11.27,52,34,0.68,YE,1675552923
350,Half Moon Bay,37.4636,-122.4286,15.3,94,100,10.29,US,1675552923
351,Kununurra,-15.7667,128.7333,26.99,78,100,2.57,AU,1675552923
352,Narasannapeta,18.4167,84.05,18.29,80,6,2.66,IN,1675552924
353,Valleyview,55.0667,-117.2859,6.02,56,89,1.54,CA,1675552924
354,Chase,50.8165,-119.6857,6.49,93,94,1.75,CA,1675552924
355,Praia,14.9215,-23.5087,21.3,73,0,7.72,CV,1675552925
356,Jacareacanga,-6.2222,-57.7528,23.61,96,89,1.06,BR,1675552772
357,Dicabisagan,17.0818,122.4157,23.01,87,85,0.87,PH,1675552925
358,George Town,5.4112,100.3354,25.96,90,20,3.6,MY,1675552653
359,Havelock,34.8791,-76.9013,3.99,67,0,3.09,US,1675552925
360,Knysna,-34.0363,23.0471,22.19,77,3,2.99,ZA,1675552926
361,El Tigre,8.8875,-64.2454,27.54,53,98,4.57,VE,1675552926
362,Kahului,20.8947,-156.47,26.09,69,20,9.77,US,1675552926
363,Ginda,30.6945,78.4932,5.84,25,0,3.73,IN,1675552737
364,Chapais,49.7834,-74.8492,-22.12,95,100,4.86,CA,1675552676
365,Nabire,-3.3667,135.4833,23.88,96,100,1.6,ID,1675552927
366,Wattegama,6.7989,81.4808,22.08,94,66,2.07,LK,1675552927
367,Kingston,17.997,-76.7936,26.53,76,40,6.69,JM,1675552771
368,Esim,4.8699,-2.2405,25.91,89,100,3.5,GH,1675552653
369,Macapá,0.0389,-51.0664,24.99,100,40,1.54,BR,1675552928
370,Mnogovershinnyy,53.9353,139.9242,-26.88,93,76,1.56,RU,1675552928
371,Husavik,66.0449,-17.3389,-2.68,75,38,6.62,IS,1675552928
372,Jieshi,22.8134,115.8257,16.29,85,100,5.03,CN,1675552929
373,Vila,42.0304,-8.1588,2.49,56,0,2.07,PT,1675552929
374,Nouadhibou,20.931,-17.0347,19.99,32,86,8.23,MR,1675552929
375,Kudat,6.8837,116.8477,26.96,89,20,2.57,MY,1675552930
376,Paamiut,61.994,-49.6678,-4.69,78,100,11.48,GL,1675552930
377,Deputatsky,69.3,139.9,-34.2,99,95,1.28,RU,1675552930
378,Kapustin Yar,48.5831,45.7372,-4.3,95,99,2.77,RU,1675552931
379,Lumberton,34.6182,-79.0086,4.69,56,0,0.0,US,1675552931
380,Teguise,29.0605,-13.564,13.12,63,20,3.6,ES,1675552931
381,Masumbwe,-3.6333,32.1833,17.11,84,28,0.52,TZ,1675552932
382,Yangi Marg`ilon,40.4272,71.7189,4.4,81,100,3.09,UZ,1675552932
383,Brumado,-14.2036,-41.6653,26.1,56,46,2.36,BR,1675552932
384,Weyburn,49.6668,-103.8511,-2.88,86,95,2.57,CA,1675552933
385,Watertown,42.3709,-71.1828,-9.49,29,0,3.6,US,1675552904
386,Metu,8.3,35.5833,14.83,47,31,1.01,ET,1675552933
387,Biltine,14.5333,20.9167,22.47,12,100,3.31,TD,1675552933
388,Talcahuano,-36.7167,-73.1167,17.82,82,100,3.09,CL,1675552934
389,Vrises,35.492,23.8899,12.88,76,73,8.33,GR,1675552934
390,Anadyr,64.75,177.4833,-29.72,76,0,4.0,RU,1675552729
391,Pacifica,37.6138,-122.4869,15.13,94,100,10.29,US,1675552934
392,Cercal,37.806,-8.6715,9.86,77,0,1.94,PT,1675552935
393,Funtua,11.5233,7.3081,22.09,17,100,4.04,NG,1675552935
394,Ixtapa,20.7,-105.2,25.13,78,20,5.14,MX,1675552935
395,Bougouni,11.417,-7.479,26.11,14,38,2.6,ML,1675552936
396,Santiago de Cao,-7.9589,-79.2392,22.07,83,75,2.06,PE,1675552936
397,Wajima,37.4,136.9,0.38,86,0,0.51,JP,1675552936
398,Alekseyevsk,57.8406,108.3492,-13.73,96,100,2.94,RU,1675552937
399,Rong Kwang,18.339,100.3174,21.71,93,44,0.88,TH,1675552937
400,Luba,3.4568,8.5547,25.94,81,61,3.8,GQ,1675552937
401,Varhaug,58.6147,5.6457,5.5,97,100,6.85,NO,1675552938
402,Lahaina,20.8783,-156.6825,26.08,76,100,6.38,US,1675552723
403,Houma,29.5958,-90.7195,16.67,69,0,3.6,US,1675552938
404,Imbituba,-28.24,-48.6703,23.05,84,32,2.74,BR,1675552938
405,Mahibadhoo,3.7833,72.9667,26.62,72,82,1.53,MV,1675552939
406,Tsimmerbude,54.675,20.1347,-0.97,78,65,3.48,RU,1675552939
407,High Level,58.5169,-117.136,-12.94,85,100,1.54,CA,1675552939
408,Hasaki,35.7333,140.8333,6.23,56,5,7.2,JP,1675552940
409,Korem,12.5058,39.5228,10.05,78,11,0.73,ET,1675552940
410,Portland,45.5234,-122.6762,11.67,77,100,4.47,US,1675552936
411,Toora-Khem,52.4675,96.11,-17.79,98,100,0.41,RU,1675552940
412,Eydhafushi,5.1033,73.0708,27.03,77,92,2.36,MV,1675552881
413,Whakatane,-37.9585,176.9854,22.65,78,89,3.15,NZ,1675552941
414,Victor Harbor,-35.5667,138.6167,18.71,70,44,0.78,AU,1675552941
415,Baiyin,36.5583,104.2081,-0.77,43,95,2.08,CN,1675552941
416,Takaka,-40.85,172.8,21.42,97,99,3.36,NZ,1675552942
417,Sittwe,20.15,92.9,16.76,61,87,3.04,MM,1675552942
418,Port Hueneme,34.1478,-119.1951,23.41,62,0,5.14,US,1675552942
419,Faqirwali,29.4663,73.034,14.89,36,0,3.22,PK,1675552943
420,Ugento,39.9263,18.1574,5.72,53,52,12.16,IT,1675552943
421,Kaohsiung City,22.6163,120.3133,17.97,90,75,1.54,TW,1675552723
422,Kondinskoye,59.6481,67.41,-18.15,97,89,2.39,RU,1675552943
423,Uvat,59.1433,68.8953,-18.87,100,95,1.81,RU,1675552944
424,Lyantonde,-0.4031,31.1572,18.99,57,78,1.65,UG,1675552944
425,Yar-Sale,66.8333,70.8333,-12.8,97,97,2.81,RU,1675552668
426,Ukiah,39.1502,-123.2078,13.97,94,100,3.6,US,1675552944
427,Kearney,40.6995,-99.0815,4.95,66,0,5.66,US,1675552945
428,Otane,-39.8833,176.6333,27.1,59,2,2.62,NZ,1675552945
429,Kenai,60.5544,-151.2583,-3.25,86,100,1.54,US,1675552854
430,Texarkana,33.4251,-94.0477,14.12,41,0,2.57,US,1675552945
431,Kachīry,53.0675,76.1036,-21.49,100,49,2.53,KZ,1675552946
432,Gouyave,12.1646,-61.7296,25.43,83,20,8.23,GD,1675552946
433,Nishihara,26.1842,127.7558,17.6,83,75,4.63,JP,1675552946
434,Fairbanks,64.8378,-147.7164,-11.16,79,75,2.57,US,1675552877
435,Te Anau,-45.4167,167.7167,17.98,97,100,2.65,NZ,1675552947
436,Alice Springs,-23.7,133.8833,20.75,43,1,3.09,AU,1675552947
437,Mauriti,-7.3892,-38.7744,25.76,35,64,0.63,BR,1675552947
438,Barra,-11.0894,-43.1417,26.66,63,40,0.94,BR,1675552948
439,Atyrau,47.1167,51.8833,-6.99,93,75,3.0,KZ,1675552800
440,Okakarara,-20.5833,17.4333,19.98,83,96,3.22,NA,1675552948
441,Atasū,48.6814,71.6433,-11.19,97,97,2.02,KZ,1675552948
442,Mezen',65.8522,44.24,-20.29,100,74,1.53,RU,1675552949
443,Eureka,40.8021,-124.1637,17.57,52,100,5.81,US,1675552949
444,Enid,36.3956,-97.8784,15.82,40,0,9.26,US,1675552667
445,Pueblo Bello,8.2041,-76.526,25.23,82,98,2.35,CO,1675552949
446,Radovitskiy,55.1282,39.7956,-5.66,98,100,0.99,RU,1675552950
447,Basoko,1.2391,23.616,22.82,47,27,1.8,CD,1675552950
448,Charlestown,-32.95,151.6667,25.57,41,0,1.34,AU,1675552688
449,Piterka,50.6803,47.4454,-10.07,97,83,2.19,RU,1675552951
450,San Matías,-16.3667,-58.4,24.93,87,95,1.86,BO,1675552951
451,Kumul,42.8,93.45,-1.03,37,100,2.19,CN,1675552951
452,Qadirpur Ran,30.2924,71.6712,12.94,41,0,2.47,PK,1675552952
453,Hamilton,39.1834,-84.5333,7.97,46,0,7.2,US,1675552859
454,Paramonga,-10.6667,-77.8333,22.99,80,91,3.45,PE,1675552952
455,Chernyshevskiy,63.0128,112.4714,-39.62,100,99,1.37,RU,1675552952
456,Werda,-25.2667,23.2833,24.35,63,89,4.86,BW,1675552953
457,Isiro,2.7739,27.616,20.5,38,44,0.21,CD,1675552953
458,Muzhi,65.3667,64.6667,-16.85,91,18,2.47,RU,1675552953
459,Aurich,53.4667,7.4833,3.29,89,82,2.06,DE,1675552954
460,Katobu,-4.9408,122.5276,24.13,92,100,1.43,ID,1675552954
461,Riyadh,24.6877,46.7219,15.08,56,0,4.07,SA,1675552714
462,Robertsport,6.7533,-11.3686,26.36,90,43,3.67,LR,1675552954
463,Gao,16.6362,1.637,23.11,13,26,4.58,ML,1675552955
464,Fria,10.4167,-13.5833,20.67,82,6,0.33,GN,1675552955
465,Jaru,-10.4389,-62.4664,23.63,95,99,0.76,BR,1675552955
466,Bathsheba,13.2167,-59.5167,26.34,78,75,8.75,BB,1675552956
467,Syedove,47.0768,38.156,-0.72,82,94,2.6,UA,1675552956
468,Marabu,4.4148,114.0089,24.08,94,20,0.51,MY,1675552658
469,Marshall,34.3834,-86.3333,10.84,50,0,1.54,US,1675552810
470,Uthal,25.8072,66.6219,18.74,85,0,1.25,PK,1675552956
471,Altona,53.55,9.9333,-0.14,85,0,3.09,DE,1675552957
472,Gurbăneşti,44.3833,26.7,0.92,90,100,10.09,RO,1675552957
473,Bulungu,-4.55,18.6,20.59,94,96,0.65,CD,1675552957
474,Shimoda,34.6667,138.95,9.2,62,42,5.33,JP,1675552677
475,Bosaso,11.2842,49.1816,21.46,78,54,0.63,SO,1675552958
476,Cap Malheureux,-19.9842,57.6142,24.15,82,97,0.89,MU,1675552958
477,Iberia,29.9502,-91.7507,14.04,62,0,4.12,US,1675552958
478,Norrtälje,59.758,18.705,-4.43,74,76,2.77,SE,1675552959
479,Hirara,24.8,125.2833,19.15,77,75,3.6,JP,1675552699
480,Sitka,57.0531,-135.33,2.94,87,100,0.0,US,1675552959
481,Yerbogachën,61.2767,108.0108,-28.41,100,94,1.15,RU,1675552959
482,Wichita Falls,33.9137,-98.4934,17.07,39,0,8.23,US,1675552960
483,Owosso,42.9978,-84.1766,-0.6,64,0,2.57,US,1675552960
484,Kieta,-6.2167,155.6333,26.71,82,98,1.51,PG,1675552960
485,Pingzhuang,42.0372,119.2889,-6.13,38,75,0.98,CN,1675552961
486,Olafsvik,64.8945,-23.7142,2.5,97,100,10.7,IS,1675552961
487,Tucupita,9.0622,-62.051,25.21,73,64,3.04,VE,1675552961
488,Dunedin,-45.8742,170.5036,22.67,70,100,4.92,NZ,1675552962
489,La Ronge,55.1001,-105.2842,-10.86,73,75,1.54,CA,1675552962
490,Datong,40.0936,113.2914,-5.3,35,50,1.54,CN,1675552962
491,Churapcha,62.0025,132.4325,-35.15,100,100,0.62,RU,1675552963
492,Kaihua,23.3687,104.28,13.28,90,77,3.56,CN,1675552963
493,Goderich,43.7501,-81.7165,-2.82,63,88,8.75,CA,1675552963
494,Mackay,-21.15,149.2,28.3,79,99,2.5,AU,1675552755
495,Bourail,-21.5667,165.4833,30.64,65,60,1.81,NC,1675552964
496,Port Hardy,50.6996,-127.4199,8.1,93,75,9.77,CA,1675552964
497,LaBelle,26.7617,-81.4384,21.1,66,100,6.99,US,1675552964
498,Cassilândia,-19.1133,-51.7342,22.9,89,94,1.44,BR,1675552965
499,Okhotsk,59.3833,143.3,-26.97,82,40,5.0,RU,1675552965
500,Kamen'-na-Obi,53.7884,81.3423,-21.23,100,73,1.62,RU,1675552965
501,Road Town,18.4167,-64.6167,26.02,78,40,5.14,VG,1675552840
502,Zhangye,38.9342,100.4517,-3.86,47,8,2.09,CN,1675552966
503,Manzanillo,20.3433,-77.1167,26.59,62,62,1.48,CU,1675552966
504,Wau,7.7029,27.9953,24.64,18,8,2.27,SS,1675552966
505,Leh,34.1667,77.5833,-15.92,84,75,1.03,IN,1675552967
506,Biloela,-24.4167,150.5,28.81,59,97,2.71,AU,1675552967
507,Padang,-0.9492,100.3543,24.03,87,100,1.29,ID,1675552967
508,Rodolfo Sánchez Taboada,31.7167,-116.5667,17.28,72,5,3.81,MX,1675552968
509,Kisangani,0.5167,25.2,21.97,59,22,0.83,CD,1675552968
510,Srednekolymsk,67.45,153.6833,-36.22,100,100,1.57,RU,1675552968
511,Mangalore,12.8667,74.8833,24.48,83,1,0.0,IN,1675552969
512,Taseyevo,57.2169,94.8978,-20.63,100,100,0.28,RU,1675552969
513,Zelenoborsk,61.4669,64.0333,-15.14,98,100,0.52,RU,1675552969
514,Villa Rica,33.7321,-84.9191,8.77,47,90,2.38,US,1675552969
515,South Lake Tahoe,38.9332,-119.9844,8.12,35,0,6.69,US,1675552970
516,Laguna,38.421,-121.4238,18.43,74,100,4.63,US,1675552970
517,Jackson,42.4165,-122.8345,15.93,40,20,9.26,US,1675552703
518,Ichinomiya,35.3,136.8,5.92,68,4,1.71,JP,1675552971
519,Miraflores,19.2167,-98.8083,21.68,29,11,1.31,MX,1675552971
520,Río Gallegos,-51.6226,-69.2181,18.03,63,75,2.57,AR,1675552721
521,Kavieng,-2.5744,150.7967,28.42,71,95,1.97,PG,1675552807
522,Paso de los Toros,-32.8167,-56.5167,22.31,33,1,5.57,UY,1675552971
523,Coolum Beach,-26.5333,153.1,26.85,89,62,5.12,AU,1675552972
524,Arrondissement de Senlis,49.25,2.6667,8.41,84,100,3.31,FR,1675552972
525,Rongcheng,30.634,117.8517,7.14,90,100,0.89,CN,1675552972
526,Fengzhen,40.4394,113.1536,-6.81,41,71,1.27,CN,1675552973
527,Zhezkazgan,47.8043,67.7144,-9.68,96,100,2.1,KZ,1675552717
528,Bilma,18.6853,12.9164,21.85,16,27,2.23,NE,1675552973
529,Palmer,42.1584,-72.3287,-9.31,29,100,2.57,US,1675552974
530,Cao Bang,22.6667,106.25,17.09,98,100,1.11,VN,1675552974
531,Dalbandin,28.8947,64.4101,15.33,51,0,1.59,PK,1675552974
532,Vaitape,-16.5167,-151.75,27.55,73,55,7.8,PF,1675552711
533,Sinnamary,5.3833,-52.95,24.89,88,100,7.5,GF,1675552975
534,Pedasí,7.5333,-80.0333,24.48,76,42,9.28,PA,1675552975
535,Boulder,40.0833,-105.3505,7.18,31,0,13.86,US,1675552831
536,Kwinana,-32.25,115.7667,27.12,75,0,0.45,AU,1675552976
537,Samarai,-10.6167,150.6667,28.26,74,75,2.69,PG,1675552977
538,San Rafael,-34.6177,-68.3301,29.85,17,0,6.08,AR,1675552848
539,Vanimo,-2.6741,141.3028,26.83,82,97,1.42,PG,1675552977
540,Benevides,-1.3614,-48.2447,23.89,98,100,1.37,BR,1675552978
541,Manoel Urbano,-8.8389,-69.2597,22.7,87,100,0.62,BR,1675552912
542,Aklavik,68.2191,-135.0107,-35.0,75,0,1.54,CA,1675552978
543,Spring Valley,36.108,-115.245,16.66,26,75,2.06,US,1675552978
544,Wanaka,-44.7,169.15,21.73,79,100,1.34,NZ,1675552979
545,Province of Groningen,53.25,6.75,4.53,83,100,2.06,NL,1675552979
546,Asău,46.4333,26.4,-4.29,89,100,5.24,RO,1675552979
547,Zemio,5.0314,25.1361,21.4,24,36,1.17,CF,1675552980
548,Baykit,61.67,96.37,-15.8,99,99,0.97,RU,1675552980
549,Harper,4.375,-7.7169,26.05,85,10,3.06,LR,1675552980
550,Yenotayevka,47.2456,47.0281,-4.76,97,93,2.37,RU,1675552981
551,Qaqortoq,60.7167,-46.0333,-5.47,81,98,6.78,GL,1675552981
552,Champerico,14.3,-91.9167,31.3,62,2,4.5,GT,1675552981
553,Sechura,-5.5569,-80.8222,26.4,60,57,6.71,PE,1675552982
554,Lapi,17.716,121.8978,20.76,94,98,1.23,PH,1675552982
555,Honningsvåg,70.9821,25.9704,-2.14,64,74,7.72,NO,1675552983
556,Santiago del Estero,-27.7951,-64.2615,27.34,40,100,1.59,AR,1675552984
557,Ambilobe,-13.2,49.05,23.07,96,99,0.55,MG,1675552984
558,Sept-Îles,50.2001,-66.3821,-19.41,66,20,9.26,CA,1675552987
559,Kem',64.9555,34.5793,-13.14,88,90,3.48,RU,1675552989
560,Tabas,33.5959,56.9244,8.09,49,44,1.08,IR,1675552991
561,Kamina,-8.7386,24.9906,15.23,98,93,1.72,CD,1675552996
562,Bam,29.106,58.357,11.54,48,1,0.59,IR,1675552997
